{"Parkings":{"parkings":[{"name":"P08","description":"Ramen","address":"Ramen 23,<br>9000 Gent","contactInfo":"Tel.: 09 266 29 70","openingHours":"24\/24 open","open":true,"totalCapacity":266,"availableCapacity":"","latitude":51.056,"longitude":3.716,"covered":true},{"name":"P04","description":"Savaanstraat","address":"Savaanstraat 13,<br>9000 Gent","contactInfo":"Tel.: 09 266 29 40","openingHours":"24\/24 open","open":true,"totalCapacity":540,"availableCapacity":92,"latitude":51.0486,"longitude":3.7222,"covered":true},{"name":"P07","description":"Sint-Michiels","address":"Sint-Michielsplein 8,<br>9000 Gent","contactInfo":"Tel.: 09 266 29 20","openingHours":"24\/24 open","open":true,"totalCapacity":450,"availableCapacity":"","latitude":51.053,"longitude":3.719,"covered":true},{"name":"P10","description":"Sint-Pietersplein","address":"Sint-Pietersplein 65,<br>9000 Gent","contactInfo":"Tel.: 09 266 29 60","openingHours":"24\/24 open","open":true,"totalCapacity":708,"availableCapacity":285,"latitude":51.042,"longitude":3.726,"covered":true},{"name":"P02","description":"Reep","address":"Seminariestraat 9,<br>9000 Gent","contactInfo":"Tel.: 09 266 29 50","openingHours":"24\/24 open","open":true,"totalCapacity":470,"availableCapacity":33,"latitude":51.052,"longitude":3.731,"covered":true},{"name":"P01","description":"Vrijdagmarkt","address":"Vrijdagmarkt 1,<br>9000 Gent","contactInfo":"Tel.: 09 266 29 00 <br> (permanentie)<br> Tel.: 09 266 29 01 <br> (tijdens kantooruren)","openingHours":"24\/24 open","open":true,"totalCapacity":647,"availableCapacity":"","latitude":51.057,"longitude":3.726,"covered":true}]}}